{
  "Attraction": [
    {
      "name": "Willis Tower",
      "bathrooms": true,
      "food": true,
      "accessible": true,
      "type": [1,2],
      "image": "https://img.static-kl.com/images/media/0E7A5386-D2C1-4644-968B4385D504F819?aspect_ratio=1:1&min_width=912",
      "lat": 41.8789,
      "long": -87.6359
    },
    {
      "name": " Illinois Route 66 Hall of Fame",
      "bathrooms": false,
      "food": true,
      "accessible": true,
      "type": [2,3],
      "image": "http://mapofroute66.com/wp-content/uploads/2014/10/rt66museum-pontiac1.jpg",
      "lat": 40.881130,
      "long": -88.629540
    },
    {
      "name": "Chicago Theatre",
      "bathrooms": true,
      "food": true,
      "accessible": true,
      "type": [4],
      "image": "https://upload.wikimedia.org/wikipedia/commons/d/d8/Chicago_Theatre_1.jpg",
      "lat": 41.8855,
      "long": -87.6276
    },
    {
      "name": "Museum of Science and Industry",
      "bathrooms": true,
      "food": true,
      "accessible": true,
      "type": [3],
      "image": "https://www.inexhibit.com/wp-content/webp-express/webp-images/uploads/2014/11/Museum-Science-Industry-Chicago-1-870x580.jpg.webp",
      "lat": 41.8855,
      "long": -87.6276
    },
    {
      "name": "Chicago Symphony Orchestra",
      "bathrooms": true,
      "food": true,
      "accessible": true,
      "type": [3],
      "image": "https://assets.classicfm.com/2011/24/chicago-symphony-orchestra-1-1308055271-view-0.jpg",
      "lat": 41.8970,
      "long": -87.6251
    },
    {
      "name": "Art Institute of Chicago",
      "bathrooms": true,
      "food": true,
      "accessible": true,
      "type": [3],
      "image": "https://miro.medium.com/max/2944/1*khzyOPfTqDlRFSvRypA2uQ.jpeg",
      "lat": 41.8796,
      "long": -87.6237
    },
    {
      "name": "Wrigley Field",
      "bathrooms": true,
      "food": true,
      "accessible": true,
      "type": [6],
      "image": "https://aviewfrommyseat.com/medium/luket31-20170418190224.jpg",
      "lat": 41.9484,
      "long": -87.6553
    },
    {
      "name": "Grafton Zipline",
      "bathrooms": false,
      "food": true,
      "accessible": true,
      "type": [4],
      "image": "https://img.grouponcdn.com/deal/6nXbDLXq6sr34daVnRAh/g7-440x267/v1/sc600x600.jpg",
      "lat": 38.9696,
      "long": -90.4361
    },
    {
      "name": "Starved Rock State Park",
      "bathrooms": true,
      "food": false,
      "accessible": false,
      "type": [4],
      "image": "https://www.starvedrocklodge.com/wp-content/uploads/2019/08/starved-rock-state-park-01-768x512.jpg",
      "lat": 41.3192,
      "long": -89.0060
    },
    {
      "name": "The Glen Town Center",
      "bathrooms": true,
      "food": true,
      "accessible": true,
      "type": [5],
      "image": "https://upload.wikimedia.org/wikipedia/commons/c/c9/The_Glen_Town_Center_%282723219030%29.jpg",
      "lat": 42.0898,
      "long": -87.8247
    }
  ]   
}  